[{"name":"Berried Memories","link":"/wikis/final-fantasy-15/Berried_Memories","level":0,"chapter":6,"location":"Galdin Quay ","rewards":["5000 EXP","1 Leiden Sweet Potato","1 Fine Cleigne Wheat","1 Ulwaat Berries","3000 gil","New Food Sold"],"region":"Leide"},{"name":"Scenic Delivery","link":"/wikis/final-fantasy-15/Scenic_Delivery","level":1,"chapter":2,"location":"Hammerhead ","rewards":["300 EXP","2 Gighee Ham","2 Leiden Potato","2 Sheep Milk","2 Funguar"],"region":"Leide"},{"name":"Photo Op: Mountain","link":"/wikis/final-fantasy-15/Photo_Op:_Mountain","level":3,"chapter":3,"location":"Longwythe Peak ","rewards":["200 EXP"],"region":"Leide"},{"name":"Photo Op: Quarry","link":"/wikis/final-fantasy-15/Photo_Op:_Quarry","level":5,"chapter":4,"location":"Balouve Mines ","rewards":["200 EXP"],"region":"Leide"},{"name":"Photo Op: Quay","link":"/wikis/final-fantasy-15/Photo_Op:_Quay","level":4,"chapter":3,"location":"Galdin Quay ","rewards":["200 EXP"],"region":"Leide"},{"name":"Photo Op: Battlefield","link":"/wikis/final-fantasy-15/Photo_Op:_Battlefield","level":9,"chapter":5,"location":"Keycatrich Ruins ","rewards":["200 EXP"],"region":"Leide"},{"name":"Kitty Catering","link":"/wikis/final-fantasy-15/Kitty_Catering","level":1,"location":"Galdin Quay","rewards":["600 EXP","Dragon Scales"],"region":"Leide"},{"name":"Careless in a Car","link":"/wikis/final-fantasy-15/Careless_in_a_Car","level":1,"location":"Ostrum Gorge","rewards":["1500 EXP, 6,000 Gil"],"region":"Leide"},{"name":"Broken-Down","link":"/wikis/final-fantasy-15/Broken-Down","level":2,"location":"Longwythe Rest Area (South on the road)","rewards":["300 EXP","500 gil"],"region":"Leide"},{"name":"Highway Helper","link":"/wikis/final-fantasy-15/Highway_Helper","level":2,"location":"Hammerhead (Northwest on the road)","rewards":["300 EXP","500 gil"],"region":"Leide"},{"name":"Car-mic Retribution","link":"/wikis/final-fantasy-15/Car-mic_Retribution","level":3,"location":"North of Saulhend Pass","rewards":["500 EXP 1,500 Gil"],"region":"Leide"},{"name":"Gone Hunting","link":"/wikis/final-fantasy-15/Gone_Hunting","level":5,"location":"Longwythe Rest Area","rewards":["500 EXP","10 Hi-Potion"],"region":"Leide"},{"name":"Scraps of Mystery","level":5,"location":"Longwythe Rest Area","rewards":["Sylvester's Map Piece A"],"region":"Leide"},{"name":"Hunters and Gatherers","link":"/wikis/final-fantasy-15/Hunters_and_Gatherers","level":6,"chapter":2,"location":"Hammerhead ","rewards":["500 EXP","2 Cleigne Wheat","5 Dualhorn Steak","5 Leiden Pepper"],"region":"Leide"},{"name":"The Aspiring Artisan","link":"/wikis/final-fantasy-15/The_Aspiring_Artisan","level":6,"chapter":2,"location":"Galdin Quay ","rewards":["500 EXP","Amethyst Bracelet"],"region":"Leide"},{"name":"Search and Rescue","link":"/wikis/final-fantasy-15/Search_and_Rescue","level":3,"location":"The Three Valleys","rewards":["300 EXP 500 Gil"],"region":"Leide"},{"name":"Palpable Pain","link":"/wikis/final-fantasy-15/Palpable_Pain","level":4,"chapter":2,"location":"The Three Valleys","rewards":["350 EXP 900 Gil"],"region":"Leide"},{"name":"Tired of Running","link":"/wikis/final-fantasy-15/Tired_of_Running","level":5,"location":"The Three Valleys","rewards":["300 EXP 500 Gil"],"region":"Leide"},{"name":"When You Believe","link":"/wikis/final-fantasy-15/When_You_Believe","level":5,"location":"Keycatirch Trench","rewards":["1000 EXP 6000 Gil"],"region":"Leide"},{"name":"The Ever Regal Regalia","link":"/wikis/final-fantasy-15/The_Ever_Regal_Regalia","level":7,"chapter":2,"location":"Hammerhead ","rewards":["150 EXP","Aero Wax"],"region":"Leide"},{"name":"Dust to Dust","link":"/wikis/final-fantasy-15/Dust_to_Dust","level":8,"location":"Prairie Outpost","rewards":["600 EXP","5 Mega-Potion"],"region":"Leide"},{"name":"The Ever Elegant Regalia","link":"/wikis/final-fantasy-15/The_Ever_Elegant_Regalia","level":8,"chapter":2,"location":"Hammerhead ","rewards":["500 EXP","Hammerhead Decal","Racing Stripes I","Basic Color Samples"],"region":"Leide"},{"name":"Scraps of Mystery II","link":"/wikis/final-fantasy-15/Scraps_of_Mystery_II","level":9,"location":"Prairie Outpost","rewards":["Sylvester's Map Piece B"],"region":"Leide"},{"name":"The Ever Gleaming Regalia","link":"/wikis/final-fantasy-15/The_Ever_Gleaming_Regalia","level":10,"chapter":3,"location":"Hammerhead ","rewards":["600 EXP","Fiberglass Coating"],"region":"Leide"},{"name":"Emergency Delivery","link":"/wikis/final-fantasy-15/Emergency_Delivery","level":11,"chapter":3,"location":"Hammerhead ","rewards":["1000 EXP,","5 Cleigne Wheat","5 Killer Tomato","5 Saxham Rice"],"region":"Leide"},{"name":"A Stone-Studded Stunner","link":"/wikis/final-fantasy-15/A_Stone-Studded_Stunner","level":15,"chapter":3,"location":"Galdin Quay ","rewards":["1000 EXP,","Heliodor Bracelet"],"region":"Leide"},{"name":"Reliable Royalty","link":"/wikis/final-fantasy-15/Reliable_Royalty","level":20,"location":"Galdin Quay","rewards":["1500 EXP","Sapphire Bracelet"],"region":"Leide"},{"name":"Everyone Loves Beans","link":"/wikis/final-fantasy-15/Everyone_Loves_Beans","level":22,"location":"Hammerhead","rewards":["1500 EXP","5 Leiden Pepper","5 Hulldagh Nutmeg","5 Killer Tomator"],"region":"Leide"},{"name":"No Pain, No Gem","link":"/wikis/final-fantasy-15/No_Pain,_No_Gem","level":25,"chapter":7,"location":"Galdin Quay","rewards":["2000 EXP","Ruby Bracelet"],"region":"Leide"},{"name":"Lestallum's Finest","link":"/wikis/final-fantasy-15/Lestallum%27s_Finest","level":28,"location":"Hammerhead","rewards":["2000 EXP, 2 Griffon Breasts, 5 Saxham Rice, 5 Schier Turmeric"],"region":"Leide"},{"name":"A Meat Most Magnificent","link":"/wikis/final-fantasy-15/A_Meat_Most_Magnificent","level":38,"location":"Hammerhead","rewards":["3000 EXP, 5 Allural Shallots, 5 Kettier Ginger"],"region":"Leide"},{"name":"The Ever Valorous Regalia","link":"/wikis/final-fantasy-15/The_Ever_Valorous_Regalia","level":26,"location":"Hammerhead","rewards":["1000 EXP, Supercharger"],"region":"Leide"},{"name":"Angler's Nightmare","link":"/wikis/final-fantasy-15/Angler%27s_Nightmare","level":33,"chapter":7,"location":"Galdin Quay ","rewards":["5000 EXP, Tranquillity"],"region":"Leide"},{"name":"The Ever Illustrious Regalia","link":"/wikis/final-fantasy-15/The_Ever_Illustrious_Regalia","level":45,"location":"Hammerhead","rewards":["3000 EXP, headlights"],"region":"Leide"},{"name":"Crestholm Channels","link":"/wikis/final-fantasy-15/Crestholm_Channels","level":45,"location":"Ostrum Gorge","rewards":["8000 EXP"],"region":"Leide"},{"name":"Formouth Garrison","link":"/wikis/final-fantasy-15/Formouth_Garrison","level":46,"location":"Prairie Outpost","rewards":["9000 EXP,","Strange Engine"],"region":"Leide"},{"name":"Balouve Mines","link":"/wikis/final-fantasy-15/Balouve_Mines","level":50,"location":"Balouve Mines","rewards":["10000 EXP,"],"region":"Leide"},{"name":"A Treasure Beyond Measure","link":"/wikis/final-fantasy-15/A_Treasure_Beyond_Measure","level":55,"location":"Galdin Quay","rewards":["3000 EXP,","Emerald Bracelet"],"region":"Leide"},{"name":"Into Unknown Frontiers","link":"/wikis/final-fantasy-15/Into_Unknown_Frontiers","level":null,"location":"Hammerhead","rewards":[],"region":"Leide"},{"name":"Wild Beasts on the Open Road","link":"/wikis/final-fantasy-15/Wild_Beasts_on_the_Open_Road","level":5,"location":"South of Coernix Station - Alstor","rewards":["500 EXP","1500 gil"],"region":"Duscae"},{"name":"All By Myself","level":8,"location":"South of Lingagh Haven Campground","rewards":["350 EXP","900 gil"],"region":"Duscae"},{"name":"Where the Wild Chocobos Are","link":"/wikis/final-fantasy-15/Where_the_Wild_Chocobos_Are","level":8,"location":"Wiz Chocobo Post","rewards":["500 EXP","Xelphatol Apple Seeds","Doman Plum Pits","Mamook Pear Seeds"],"region":"Duscae"},{"name":"Bird on the Brink","link":"/wikis/final-fantasy-15/Bird_on_the_Brink","level":9,"location":"Wiz Chocobo Post","rewards":["1000 EXP","Curiel Greens"],"region":"Duscae"},{"name":"Final Resting Plains","link":"/wikis/final-fantasy-15/Final_Resting_Plains","level":10,"location":"Coernix Station - Alstor","rewards":["800 EXP","10 Elixir"],"region":"Duscae"},{"name":"New to the Road","link":"/wikis/final-fantasy-15/New_to_the_Road","level":10,"location":"South of Coernix Station - Cauthess","rewards":["350 EXP","900 gil"],"region":"Duscae"},{"name":"The Jolly Joyrider","link":"/wikis/final-fantasy-15/The_Jolly_Joyrider","level":5,"location":"Thommels Glade","rewards":["350 EXP 900 Gil"],"region":"Duscae"},{"name":"A Feathery Feast","link":"/wikis/final-fantasy-15/A_Feathery_Feast","level":10,"location":"Wiz Chocobo Post","rewards":["1500 EXP","New Food Sold"],"region":"Duscae"},{"name":"Fishing Buddies","link":"/wikis/final-fantasy-15/Fishing_Buddies","level":11,"location":"Alstor Slough","rewards":["1500 EXP","Knife T. Tonberry"],"region":"Duscae"},{"name":"Chase That Chocobo!","link":"/wikis/final-fantasy-15/Chase_That_Chocobo!","level":12,"location":"Wiz Chocobo Post","rewards":["2000 EXP","Valfruit Seeds","O'Ghomoro Berry Seeds","Cieldalaes Pineapple Seeds","Han Lemon Seeds"],"region":"Duscae"},{"name":"A Rocky End","link":"/wikis/final-fantasy-15/A_Rocky_End","level":12,"location":"Cauthess Rest Area","rewards":["1000 EXP","10 Hi-Elixir"],"region":"Duscae"},{"name":"The Professor's Protege","link":"/wikis/final-fantasy-15/The_Professor%27s_Protege","level":14,"location":"Coernix Station - Alstor","rewards":["3000 EXP, Star Pendant"],"region":"Duscae"},{"name":"Friends of a Feather","link":"/wikis/final-fantasy-15/Friends_of_a_Feather","level":15,"location":"Coernix Station - Alstor","rewards":["1500 EXP,","Chocobo Whistle"],"region":"Duscae"},{"name":"The Professor's Protege - Yellow Frogs","link":"/wikis/final-fantasy-15/The_Professor%27s_Protege_-_Yellow_Frogs","level":15,"location":"Cauthess Rest Area","rewards":["4000 EXP","Rainbow Pendant"],"region":"Duscae"},{"name":"Pilgrimage","link":"/wikis/final-fantasy-15/Pilgrimage","level":16,"location":"Wiz Chocobo Post","rewards":["500 EXP"],"region":"Duscae"},{"name":"Photo Op: Disc","link":"/wikis/final-fantasy-15/Photo_Op:_Disk","level":11,"location":"Cauthess, the Disk (Chapter 3 - before 4)","rewards":["250 EXP"],"region":"Duscae"},{"name":"Photo Op: Ranch","link":"/wikis/final-fantasy-15/Photo_Op:_Ranch","level":12,"chapter":6,"location":"Wiz Chocobo Post ","rewards":["250 EXP"],"region":"Duscae"},{"name":"Photo Op: Crag","link":"/wikis/final-fantasy-15/Photo_Op:_Crag","level":13,"chapter":8,"location":"Saxham Outpost ","rewards":["250 EXP"],"region":"Duscae"},{"name":"Photo Op: Lestallum","link":"/wikis/final-fantasy-15/Photo_Op:_Lestallum","level":18,"chapter":3,"location":"Taelpar Crag ","rewards":["250 EXP"],"region":"Duscae"},{"name":"Savior of the Species","link":"/wikis/final-fantasy-15/Savior_of_the_Species","level":18,"location":"Wiz Chocobo Post","rewards":["2500 EXP","Sylkis Greens"],"region":"Duscae"},{"name":"Daurell Caverns","link":"/wikis/final-fantasy-15/Daurell_Caverns","level":28,"location":"Shier Heights","rewards":["4000 EXP"],"region":"Duscae"},{"name":"Costlemark Tower","link":"/wikis/final-fantasy-15/Costlemark_Tower","level":55,"location":"The Fallgrove","rewards":["15000 EXP,"],"region":"Duscae"},{"name":"Scraps of Mystery VIII","level":22,"location":"Cauthess Rest Area","rewards":["???"],"region":"Duscae"},{"name":"A Need for Noodles","level":null,"chapter":8,"location":"Lestallum","rewards":["-"],"region":"Cleigne"},{"name":"The Perfect Landscape","link":"/wikis/final-fantasy-15/The_Perfect_Landscape","level":8,"location":"Lestallum","rewards":["1000 EXP,","5000 gil"],"region":"Cleigne"},{"name":"Mind the Trap","link":"/wikis/final-fantasy-15/Mind_the_Trap","level":10,"location":"Lestallum","rewards":["1500 EXP"],"region":"Cleigne"},{"name":"Van, Interrupted","link":"/wikis/final-fantasy-15/Van,_Interrupted","level":10,"location":"Lestallum","rewards":["2000 EXP"],"region":"Cleigne"},{"name":"An Eye for Islands","link":"/wikis/final-fantasy-15/An_Eye_for_Islands","level":10,"location":"Lestallum","rewards":["1500 EXP","7500 gil"],"region":"Cleigne"},{"name":"On the Hunt for a Harvest","link":"/wikis/final-fantasy-15/On_the_Hunt_for_a_Harvest","level":10,"location":"Lestallum","rewards":["2000 EXP"],"region":"Cleigne"},{"name":"Steam Valve Inspection","link":"/wikis/final-fantasy-15/Steam_Valve_Inspection","level":10,"chapter":8,"location":"Letallum","rewards":["2000 EXP","2500 gil"],"region":"Cleigne"},{"name":"Wild About Onions","link":"/wikis/final-fantasy-15/Wild_about_Onions","level":12,"location":"Lestallum","rewards":["2500 EXP"],"region":"Cleigne"},{"name":"Aftermath of the Astral War","link":"/wikis/final-fantasy-15/Aftermath_of_the_Astral_War","level":12,"location":"Lestallum","rewards":["2000 EXP","10000 gil"],"region":"Cleigne"},{"name":"Of Gods and Kings","link":"/wikis/final-fantasy-15/Of_Gods_and_Kings","level":14,"location":"Lestallum","rewards":["2500 EXP","12000 Gil"],"region":"Cleigne"},{"name":"Ace of Carapace","link":"/wikis/final-fantasy-15/Ace_of_Carapace","level":15,"location":"Lestallum","rewards":["1500 EXP"],"region":"Cleigne"},{"name":"Van, Interrupted Again","link":"/wikis/final-fantasy-15/Van,_Interrupted_Again","level":15,"location":"Lestallum","rewards":["2500 EXP"],"region":"Cleigne"},{"name":"Power to the Pylons","link":"/wikis/final-fantasy-15/Power_to_the_Pylons","level":15,"chapter":8,"location":"Lestallum","rewards":["3000 EXP","5000 Gil"],"region":"Cleigne"},{"name":"Swallowed by Shadows","link":"/wikis/final-fantasy-15/Swallowed_by_Shadows","level":17,"location":"Taelpar Rest Area","rewards":["1200 EXP","10 Hi-Elixer"],"region":"Cleigne"},{"name":"Tails Spin","link":"/wikis/final-fantasy-15/Tails_Spin","level":20,"location":"Lestallum","rewards":["2000 EXP"],"region":"Cleigne"},{"name":"Vyv's Volcanic Inspiration","link":"/wikis/final-fantasy-15/Vyv%27s_Volcanic_Inspiration","level":20,"location":"Lestallum","rewards":["3600 EXP","15000 Gil"],"region":"Cleigne"},{"name":"The Cursed Canvas","link":"/wikis/final-fantasy-15/The_Cursed_Canvas","level":30,"location":"Lestallum","rewards":["5000 EXP, 25,000 Gil"],"region":"Cleigne"},{"name":"A Place to Call Home","link":"/wikis/final-fantasy-15/A_Place_to_Call_Home","level":20,"location":"Lestallum","rewards":["3500 EXP","17500 Gil"],"region":"Cleigne"},{"name":"Vegging Out","link":"/wikis/final-fantasy-15/Vegging_Out","level":20,"location":"Lestallum","rewards":["3000 EXP"],"region":"Cleigne"},{"name":"Photo Op: Mascot","link":"/wikis/final-fantasy-15/Photo_Op:_Mascot","level":20,"chapter":8,"location":"Old Lestallum ","rewards":["300 EXP"],"region":"Cleigne"},{"name":"A Feline Feast","link":"/wikis/final-fantasy-15/A_Feline_Feast","level":20,"location":"Cape Caem","rewards":["1200 EXP, Sky Gemstone"],"region":"Cleigne"},{"name":"Crazy about Cactuars","link":"/wikis/final-fantasy-15/Crazy_about_Cactuars","level":20,"chapter":8,"location":"Cape Caem","rewards":["2000 EXP"],"region":"Cleigne"},{"name":"A Cactuette of Wood","link":"/wikis/final-fantasy-15/A_Cactuette_of_Wood","level":20,"chapter":8,"location":"Cape Caem","rewards":["-"],"region":"Cleigne"},{"name":"A Cactuette of Mortar","link":"/wikis/final-fantasy-15/A_Cactuette_of_Mortar","level":20,"chapter":8,"location":"Cape Caem","rewards":["-"],"region":"Cleigne"},{"name":"Living off the Land","link":"/wikis/final-fantasy-15/Living_off_the_Land","level":20,"chapter":8,"location":"Cape Caem","rewards":["500 EXP"],"region":"Cleigne"},{"name":"A Backwoods Burial","link":"/wikis/final-fantasy-15/A_Backwoods_Burial","level":20,"location":"Old Lestallum","rewards":["1500 EXP","10 Phoenix Down"],"region":"Cleigne"},{"name":"Holding Back the Dark","link":"/wikis/final-fantasy-15/Holding_Back_the_Dark","level":20,"chapter":8,"location":"Lestallum","rewards":["4000 EXP","10000 gil"],"region":"Cleigne"},{"name":"Washed Away","link":"/wikis/final-fantasy-15/Washed_Away","level":22,"location":"Old Lestallum","rewards":["1800 EXP","10 Phoenix Down"],"region":"Cleigne"},{"name":"Photo Op: Waterfall","link":"/wikis/final-fantasy-15/Photo_Op:_Waterfall","level":22,"chapter":3,"location":"Callatein's Plunge ","rewards":["300 EXP"],"region":"Cleigne"},{"name":"Fishing, Naturally","link":"/wikis/final-fantasy-15/Fishing,_Naturally","level":23,"location":"River Wennath Fishing Spot(Northeast of Burbost Souvenir Emporium)","rewards":["2000 EXP","Butterfly Edge"],"region":"Cleigne"},{"name":"Photo Op: Beacon","link":"/wikis/final-fantasy-15/Photo_Op:_Beacon","level":23,"chapter":8,"location":"Cape Caem","rewards":["300 EXP"],"region":"Cleigne"},{"name":"Vehicle Vexation","level":23,"location":"Wennath Delta","rewards":["400 EXP","1500 gil"],"region":"Cleigne"},{"name":"Sting your Praises","link":"/wikis/final-fantasy-15/Sting_your_Praises","level":25,"location":"Lestallum","rewards":["4000 EXP"],"region":"Cleigne"},{"name":"The Pen is Mightier than the Sword","link":"/wikis/final-fantasy-15/The_Pen_is_Mightier_than_the_Sword","level":25,"location":"Lestallum","rewards":["4000 EXP","20000 gil"],"region":"Cleigne"},{"name":"Photo Op: Volcano","link":"/wikis/final-fantasy-15/Photo_Op:_Volcano","level":25,"chapter":3,"location":"Rock of Ravatogh ","rewards":["250 EXP"],"region":"Cleigne"},{"name":"Photo Op: Lakefront","link":"/wikis/final-fantasy-15/Photo_Op:_Lakefront","level":27,"chapter":7,"location":"The Vesperpool ","rewards":["350 EXP"],"region":"Cleigne"},{"name":"Scraps of Mystery XI","level":27,"location":"Meldacio Hunter HQ","rewards":["??"],"region":"Cleigne"},{"name":"Navyth's Challenge","link":"/wikis/final-fantasy-15/Navyth%27s_Challenge","level":28,"chapter":7,"location":"Vesperpool ","rewards":["3000 EXP","Incincible Iron Giant"],"region":"Cleigne"},{"name":"Liege of the Lake","link":"/wikis/final-fantasy-15/Liege_of_the_Lake","level":null,"location":"Capatis Haven","rewards":["20 AP","Arapaima Scales"],"region":"Cleigne"},{"name":"The Professor's Protege - Gigantoad","link":"/wikis/final-fantasy-15/The_Professor%27s_Protege_-_Giantoad","level":28,"location":"Old Lestallum","rewards":["5000 EXP","Moon Pendant"],"region":"Cleigne"},{"name":"A Little Slip-Up","link":"/wikis/final-fantasy-15/A_Little_Slip-Up","level":29,"location":"Open World(Just northwest of Old Lestallum Outpost) (Ch. 8)","rewards":["500 EXP","1500 gil"],"region":"Cleigne"},{"name":"My Beloved Chariot","link":"/wikis/final-fantasy-15/My_Beloved_Chariot","level":30,"location":"Ravatoghan Trail (North on the road)","rewards":["400 EXP","1500 gil"],"region":"Cleigne"},{"name":"Malmalam Thicket","link":"/wikis/final-fantasy-15/Malmalam_Thicket","level":35,"location":"Malmalam Thicket (South of Old Lestallum)","rewards":["3000 EXP,"],"region":"Cleigne"},{"name":"The Myrlwood","link":"/wikis/final-fantasy-15/The_Myrlwood","level":36,"location":"Myrlwood (north-west Vesperpool)","rewards":["3000 EXP,"],"region":"Cleigne"},{"name":"Mountains of Misfortune","link":"/wikis/final-fantasy-15/Mountains_of_Misfortune","level":35,"location":"Meldacio Hunter HQ","rewards":["2000 EXP","5 Megalixir"],"region":"Cleigne"},{"name":"The Perfect Cup","link":"/wikis/final-fantasy-15/The_Perfect_Cup","level":35,"chapter":8,"location":"Lestallum","rewards":["4000 EXP","Noodle Cup"],"region":"Cleigne"},{"name":"The Witch of the Woods","link":"/wikis/final-fantasy-15/The_Witch_of_the_Woods","level":40,"location":"Verinas Mart - Ravatogh","rewards":["2500 EXP","5 Mega Phoenix"],"region":"Cleigne"},{"name":"The Professor's Protege - Wyvern","link":"/wikis/final-fantasy-15/The_Professor%27s_Protege_-_Wyvern","level":35,"location":"Ravatogh Outpost","rewards":["8000 EXP, Earth Pendant"],"region":"Cleigne"},{"name":"The Professor's Protege - Myrlwood Firefly","link":"/wikis/final-fantasy-15/The_Professor%27s_Protege_-_Myrlwood_Firefly","level":45,"location":"Meldacio Hunter HQ","rewards":["10000 EXP","Golden Hourglass"],"region":"Cleigne"},{"name":"The Professor's Prot√©ge - Griffon","link":"/wikis/final-fantasy-15/The_Professor%27s_Prot%C3%A9ge_-_Griffon","level":50,"location":"Coernix Station - Cauthess","rewards":["12000 EXP","Safety Bit"],"region":"Cleigne"},{"name":"The Frogs of Legend","link":"/wikis/final-fantasy-15/The_Frogs_of_Legend","level":null,"location":"Coernix Station - Cauthess","rewards":["15000 EXP","Ribbon"],"region":"Cleigne"},{"name":"A Legend Is Born","link":"/wikis/final-fantasy-15/A_Legend_Is_Born","level":55,"chapter":15,"location":"Lestallum","rewards":["8000 EXP","Iron Duke"],"region":"Cleigne"},{"name":"The Rock of Ravatogh","link":"/wikis/final-fantasy-15/The_Rock_of_Ravatogh","level":30,"location":"The Rock of Ravatogh","rewards":["4000 EXP"],"region":"Cleigne"},{"name":"Stealing the Past","link":"/wikis/final-fantasy-15/Stealing_the_Past","level":60,"location":"Lestallum","rewards":["50000 EXP"],"region":"Cleigne"},{"name":"Dreadful Legend","link":"/wikis/final-fantasy-15/Dreadful_Legend","level":65,"chapter":15,"location":"Lestallum","rewards":["10000 EXP","Dragoon Lance"],"region":"Cleigne"},{"name":"Legend Wrapped in an Enigma","link":"/wikis/final-fantasy-15/Legend_Wrapped_in_an_Enigma","level":75,"chapter":15,"location":"Lestallum","rewards":["12000 EXP","Ziedrich"],"region":"Cleigne"},{"name":"Cursed Legend","link":"/wikis/final-fantasy-15/Cursed_Legend","level":85,"chapter":15,"location":"Lestallum","rewards":["15000 EXP","Soul Saber"],"region":"Cleigne"},{"name":"Wondrous Weapon","link":"/wikis/final-fantasy-15/Wondrous_Weapon","level":99,"chapter":15,"location":"Lestallum","rewards":["20000 EXP","Zwill Crossblades"],"region":"Cleigne"},{"name":"Cid Sophiar, Master Mechanic","link":"/wikis/final-fantasy-15/Cid_Sophiar,_Master_Mechanic","rewards":["500 EXP","Drain Lance II"],"region":"Cid"},{"name":"A Better Engine Blade","link":"/wikis/final-fantasy-15/A_Better_Engine_Blade","rewards":["500 EXP","Engine Blade II"],"region":"Cid"},{"name":"A Better Engine Blade II","link":"/wikis/final-fantasy-15/A_Better_Engine_Blade_II","rewards":["800 EXP","Engine Blade III"],"region":"Cid"},{"name":"A Better Engine Blade III","link":"/wikis/final-fantasy-15/A_Better_Engine_Blade_III","rewards":["1000 EXP,","Ultima Blade"],"region":"Cid"},{"name":"A Better Drain Lance II","link":"/wikis/final-fantasy-15/A_Better_Drain_Lance_II","rewards":["800 EXP","Drain Lance III"],"region":"Cid"},{"name":"A Better Auto Crossbow","link":"/wikis/final-fantasy-15/A_Better_Auto_Crossbow","rewards":["2000 EXP,","Auto Crossbow Plus"],"region":"Cid"},{"name":"A Better Bioblaster","link":"/wikis/final-fantasy-15/A_Better_Bioblaster","rewards":["2000 EXP, Bioblaster Plus"],"region":"Cid"},{"name":"A Better Circular Saw","link":"/wikis/final-fantasy-15/A_Better_Circular_Saw","rewards":["2000 EXP,","Circular Saw Plus"],"region":"Cid"},{"name":"A Better Gravity Well","link":"/wikis/final-fantasy-15/A_Better_Gravity_Well","rewards":["2000 EXP,","Gravity Well Plus"],"region":"Cid"},{"name":"A Better Noiseblaster","link":"/wikis/final-fantasy-15/A_Better_Noiseblaster","rewards":["2000 EXP,","Noiseblaster Plus"],"region":"Cid"},{"name":"A Better Drillbreaker","link":"/wikis/final-fantasy-15/A_Better_Drillbreaker","rewards":["2000 EXP,","Drillbreaker Plus"],"region":"Cid"},{"name":"A Better Absorb Shield","link":"/wikis/final-fantasy-15/A_Better_Absorb_Shield","rewards":["800 EXP","Absorb Shield II"],"region":"Cid"},{"name":"A Better Valiant","link":"/wikis/final-fantasy-15/A_Better_Valiant","rewards":["800 EXP","Valiant II"],"region":"Cid"},{"name":"A Better Pair of Plunderers","link":"/wikis/final-fantasy-15/A_Better_Pair_of_Plunderers","rewards":["800 EXP","Plunderers II"],"region":"Cid"},{"name":"A Better Force Stealer","link":"/wikis/final-fantasy-15/A_Better_Force_Stealer","rewards":["800 EXP","Force Stealer II"],"region":"Cid"},{"name":"Symbol of Peace","link":"/wikis/final-fantasy-15/Symbol_of_Peace","level":null,"location":"Xona Resbenxiale Dolsare","rewards":["1000 EXP"],"region":"Altissia"},{"name":"Photo Op: Bar","link":"/wikis/final-fantasy-15/Photo_Op:_Bar","level":null,"location":"Xone Resbenxiale Dolsare","rewards":["400 EXP"],"region":"Altissia"},{"name":"Photo Op: Park","link":"/wikis/final-fantasy-15/Photo_Op:_Park","level":null,"location":"Xone Resbenxiale Dolsare","rewards":["400 EXP"],"region":"Altissia"},{"name":"Photo Op: Palace","link":"/wikis/final-fantasy-15/Photo_Op:_Palace","level":null,"location":"Xone Resbenxiale Dolsare","rewards":["400 EXP"],"region":"Altissia"},{"name":"A Menace Sleeps in Keycatrich","link":"/wikis/final-fantasy-15/A_Menace_Sleeps_in_Keycatrich","level":55,"location":"Keycatrich Trench","rewards":["0 EXP"],"region":"Menace Beneath Lucis"},{"name":"A Menace Sleeps in the Grotto","link":"/wikis/final-fantasy-15/A_Menace_Sleeps_in_the_Grotto","level":65,"location":"Greyshire Glacial Grotto","rewards":["0 EXP"],"region":"Menace Beneath Lucis"},{"name":"A Menace Sleeps in Fociaugh","link":"/wikis/final-fantasy-15/A_Menace_Sleeps_in_Fociaugh","level":65,"location":"Fociaugh Hollow","rewards":["0 EXP"],"region":"Menace Beneath Lucis"},{"name":"A Menace Sleeps in Daurell","link":"/wikis/final-fantasy-15/A_Menace_Sleeps_in_Daurell","level":72,"location":"Daurell Caverns","rewards":["0 EXP"],"region":"Menace Beneath Lucis"},{"name":"A Menace Sleeps in Balouve","link":"/wikis/final-fantasy-15/A_Menace_Sleeps_in_Balouve","level":78,"location":"Balouve Mines","rewards":["0 EXP"],"region":"Menace Beneath Lucis"},{"name":"A Menace Sleeps in Steyliff","link":"/wikis/final-fantasy-15/A_Menace_Sleeps_in_Steyliff","level":86,"location":"The Vesperpool","rewards":["0 EXP"],"region":"Menace Beneath Lucis"},{"name":"A Menace Sleeps in Crestholm","link":"http://www.ign.com/wikis/final-fantasy-15/A_Menace_Sleeps_in_Crestholm","level":92,"location":"Crestholm Channels","rewards":["0 EXP"],"region":"Menace Beneath Lucis"},{"name":"A Menace Sleeps in Costlemark","link":"/wikis/final-fantasy-15/A_Menace_Sleeps_in_Costlemark","level":99,"location":"Castlemark Tower","rewards":["0 EXP"],"region":"Menace Beneath Lucis"}]