[{"name":"Howling Wind of Hunger","level":"2","location":"Hammerhead","enemy":["Sabertusks x7"],"habitat":"The Weaverwilds (All Times)","rewards":["740 gil","Hi-Elixir","1 Star"],"region":"Leide"},{"name":"Varmints of the Wasteland","level":"5","location":"Hammerhead","enemy":["Mesmenir x5"],"habitat":"The Weaverwilds (Day)","rewards":["980 gil","Hi-Elixir","1 Star"],"region":"Leide"},{"name":"Gorgers in the Dust","level":"7","location":"Hammerhead","enemy":["Flexitusk x3"],"habitat":"Ostium Gorge (All Times)","rewards":["1570 gil","Iron Bangle","1 Star"],"region":"Leide"},{"name":"Raindrops in the Night","level":"15","location":"Hammerhead(Hunter Rank 2)","enemy":["Jumbo Flan x1"],"habitat":"The Weaverwilds (Night)","rewards":["2390 gil","Megalixir","2 Stars"],"region":"Leide"},{"name":"Wild Beauties","level":"22","location":"Hammerhead(Hunter Rank 3)","enemy":["Anaklaban x3"],"habitat":"The Weaverwilds (Day)","rewards":["3350 gil","Megalixir","2 Stars"],"region":"Leide"},{"name":"Bounty Hunted Beauties","level":"28","location":"Hammerhead(Hunter Rank 3)","enemy":["Anakdom x3","Anak x3"],"habitat":"The Weaverwilds (Day)","rewards":["4220 gil","Megalixir","2 Stars"],"region":"Leide"},{"name":"Rookie Hunter Tragedy","level":"39","location":"Hammerhead(Hunter Rank 4)","enemy":["Ashenhorn x3"],"habitat":"The Weaverwilds (All Times)","rewards":["7330 gil","Mega Phoenix","3 Stars"],"region":"Leide"},{"name":"The Pride of the King","level":"47","location":"Hammerhead (Hunter Rank 6)","enemy":["Behemoth x1"],"habitat":"Keycatrich Ruins (All Times)","rewards":["10020 gil","Mega Phoenix","3 Stars"],"region":"Leide"},{"name":"Serpent of the Abyss","level":"58","location":"Hammerhead (Complete Crestholm Channels)","enemy":["Jormungand x1"],"habitat":"Crestholm Channels (All Times)","rewards":["16560 gil","Ruby Bracelet","4 Stars"],"region":"Leide"},{"name":"Lonely Rumblings in Longwythe","level":"99","location":"Hammerhead (Start Let Sleeping Mountains Lie)","enemy":["x1"],"habitat":"Longwythe Peak (All Times)","rewards":["50000 gil","Adamantite Bangle","5 Stars"],"region":"Leide"},{"name":"Mineside Mischief Makers","level":"7","location":"Longwythe Rest Area","enemy":["Goblins x7"],"habitat":"The Callaegh Steps (Night)","rewards":["1740 gil","Hi-Elixir","1 Star"],"region":"Leide"},{"name":"The Hunter Slaying Herd","level":"8","location":"Longwythe Rest Area","enemy":["Magnanir x2","Mesmenir x4"],"habitat":"Longwythe Peak (Day)","rewards":["1830 gil","Hi-Elixir","1 Star"],"region":"Leide"},{"name":"Squash the Squirmers","level":"14","location":"Longwythe Rest Area","enemy":["Flan x5"],"habitat":"Longwythe Peak (Night)","rewards":["2280 gil","Hi-Elixir","2 Stars"],"region":"Leide"},{"name":"Canky Crustaceans","level":"18","location":"Longwythe Rest Area(Hunter Rank 2)","enemy":["Shieldshears x3"],"habitat":"Longwythe Peak (All TImes)","rewards":["3160 gil","Megalixir","2 Stars"],"region":"Leide"},{"name":"Sting in the Tail","level":"25","location":"Longwythe Rest Area(Hunter Rank 3)","enemy":["Saphyrtail x5"],"habitat":"Longwythe Peak (All Times)","rewards":["3720 gil","Megalixir","2 Stars"],"region":"Leide"},{"name":"Beast over Brawn","level":"27","location":"Longwythe Rest Area(Hunter Rank 3)","enemy":["Grandhorn x3","Dualhorn x3"],"habitat":"The Weaverwilds (All Times)","rewards":["4010 gil","Megalixir","2 Stars"],"region":"Leide"},{"name":"In the Drylands, It Rains Spines","level":"40","location":"Longwythe Rest Area (Hunter Rank 5)","enemy":["Gigantuar x1"],"habitat":"Longwythe Peak (Day)","rewards":["7550 gil","Rainbow Pendant","3 Stars"],"region":"Leide"},{"name":"A Fistful of Gil","level":"61","location":"Longwythe Peak (Complete Balouve Mines)","enemy":["Yojimbo x1"],"habitat":"The Three Valleys (Night)","rewards":["17450 gil","Anti-darkness Inners","4 Stars"],"region":"Leide"},{"name":"Peace to the Beach","level":"11","location":"Galdin Quay","enemy":["Rubyshears x3"],"habitat":"Vannath Coast (All Times)","rewards":["1950 gil","Hi-Elixir","1 Star"],"region":"Leide"},{"name":"The Gourmands of Vannath","level":"17","location":"Galdin Quay","enemy":["Sharkshears x3"],"habitat":"Vannath Coast (All Times)","rewards":["3040 gil","Megalixir","2 Stars"],"region":"Leide"},{"name":"Stealers of Lives","level":"17","location":"Galdin Quay","enemy":["Glamhoth x7"],"habitat":"Vannath Coast (Night)","rewards":["3070 gil","Fencer's Anklet","2 Stars"],"region":"Leide"},{"name":"Footfalls in the Dark","level":"20","location":"Galdin Quay(Hunter Rank 3)","enemy":["Hobgoblin x5"],"habitat":"Vannath Coast (Night)","rewards":["3250 gil","Megalixir","2 Stars"],"region":"Leide"},{"name":"A Nightmare Came by Ferry","level":"28","location":"Galdin Quay(Hunter Rank 3)","enemy":["Seadevil x5"],"habitat":"Vannath Coast (Night)","rewards":["4250 gil","Carbon Bangle","2 Stars"],"region":"Leide"},{"name":"Galloping Garulas","level":"12","location":"Coernix Station - Alstor","enemy":["Green Garula x3","Garula x3"],"habitat":"Alstor Slough (Day)","rewards":["2010 gil","Hi-Elixir","2 Stars"],"region":"Duscae"},{"name":"Beasts Wallow in the Wetlands","level":"14","location":"Coernix Station - Alstor","enemy":["Yellowtooth x5"],"habitat":"Alstor Slough (All Times)","rewards":["2330 gil","Warrior's Anklet","2 Stars"],"region":"Duscae"},{"name":"Untamed Wild Horses","level":"25","location":"Coernix Station - Alstor|(Hunter Rank 3)","enemy":["Spiracorn x7"],"habitat":"Alstor Slough (Day)","rewards":["3870 gil","Megalixir","2 Stars"],"region":"Duscae"},{"name":"Reign Triumphant","level":"32","location":"Coernix Station - Alstor (Hunter Rank 4)","enemy":["Garula","Garulessa"],"habitat":"Alstor Slough (Day)","rewards":["5280 gil","Mega Phoenix","3 Stars"],"region":"Duscae"},{"name":"The Rogues of Rydielle Ley","level":"35","location":"Coernix Station - Alstor (Hunter Rank 4)","enemy":["Cockatrice"],"habitat":"Reydielle Ley (Day)","rewards":["5880 gil","Mega Phoenix","3 Stars"],"region":"Duscae"},{"name":"Marsh Madness! The Giant Awakens","level":"38","location":"Coernix Station - Alstor (Hunter Rank 4)","enemy":["Catobelpas"],"habitat":"Alstor Slough (All Times)","rewards":["6560 gil","Blue Choker","3 Stars"],"region":"Duscae"},{"name":"Red in Tooth and Claw","level":"12","location":"Wiz Chocobo Post","enemy":["Voretooth x7"],"habitat":"The Malacchi Hills (All Times)","rewards":["2140 gil","Hi-Elixir","2 Stars"],"region":"Duscae"},{"name":"A Behemoth Undertaking","level":"15","location":"Wiz Chocobo Post(Start Friends of a Feather)","enemy":["Deadeye x1"],"habitat":"The Nebulawood (All Times)","rewards":["3020 gil","Amethyst Pendant","2 Stars"],"region":"Duscae"},{"name":"Exorcism of the Nebulawood","level":"19","location":"Wiz Chocobo Post","enemy":["Mindflayer x3"],"habitat":"The Nebulawood (Night)","rewards":["3190 gil","Moon Pendant","2 Stars"],"region":"Duscae"},{"name":"Thunder in Them Thar Hills","level":"21","location":"Wiz Chocobo Post(Hunter Rank 3)","enemy":["Thunder Bomb x5"],"habitat":"The Malacchi Hills (Night)","rewards":["3330 gil","Megalixir","2 Stars"],"region":"Duscae"},{"name":"A Most Behemoth Undertaking","level":"62","location":"Wiz Chocobo Post(Hunter Rank 8)","enemy":["Behemoth Tyrant"],"habitat":"The Nebulawood","rewards":["19540 gil","Gold Bangle","4 Stars"],"region":"Duscae"},{"name":"Horned Hunting Lizards","level":"23","location":"Taelpar Rest Area","enemy":["Dualhorn x3"],"habitat":"Secullam Pass (All Times)","rewards":["3480 gil","Megalixir","2 Stars"],"region":"Duscae"},{"name":"Hunters of Secullam Pass","level":"34","location":"Taelpar Rest Area","enemy":["Coerul x5"],"habitat":"Secullam Pass (Day)","rewards":["5600 gil","Earth Pendant","3 Stars"],"region":"Duscae"},{"name":"Reclaiming Schier Heights","level":"37","location":"Taelpar Rest Area (Hunter Rank 4)","enemy":["Redlegs x3","Hundlegs x4"],"habitat":"Schier Heights (All Times)","rewards":["6220 gil","Mega Phoenix","3 Stars"],"region":"Duscae"},{"name":"A Roaring in the Night","level":"37","location":"Taelpar Rest Area (Hunter Rank 4)","enemy":["Iron Giant x2"],"habitat":"Schier Heights (NIght)","rewards":["6310 gil","Mega Phoenix","3 Stars"],"region":"Duscae"},{"name":"Old Denizens of the Woods","level":"63","location":"Taelpar Rest Area (Hunter Rank 8)","enemy":["Elder Coeurl"],"habitat":"Thoemmels Glade (Day)","rewards":["22540 gil","Fire Crest","4 Stars"],"region":"Duscae"},{"name":"Hammer the Canniabls","level":"38","location":"Cauthess Rest Area","enemy":["Skarnbulette x3","Bulette x3"],"habitat":"Kettier Highland (All Times)","rewards":["6910 gil","Mega Phoenix","3 Stars"],"region":"Duscae"},{"name":"Things from the Past","level":"41","location":"Cauthess Rest Area","enemy":["Necromancer x3"],"habitat":"The Fallgrove (Night)","rewards":["8080 gil","Rune Earring","3 Stars"],"region":"Duscae"},{"name":"Baby Snatchers","level":"44","location":"Cauthess Rest Area(Hunter Rank 5)","enemy":["Bussemand x3","Hobgoblin x5"],"habitat":"Saxham Outpost (Night)","rewards":["8890 gil","Mega Phoenix","3 Stars"],"region":"Duscae"},{"name":"A Daemonic Orchestra","level":"52","location":"Cauthess Rest Area (Hunter Rank 7)","enemy":["Ereshkigal"],"habitat":"Kelbass Grasslands (Night)","rewards":["14800 gil","Mega Phoenix","4 Stars"],"region":"Duscae"},{"name":"Cruel Giants of Duscae","level":"65","location":"Cauthess Rest Area (Hunter Rank 8)","enemy":["Ganymede"],"habitat":"Kettier Highland (Night)","rewards":["23730 gil","Mega Phoenix","4 Stars"],"region":"Duscae"},{"name":"Fiend of the Fallgrove","level":"66","location":"Cauthess Rest Area (Complete Costlemark Tower)","enemy":["Jabberwock"],"habitat":"Costlemark Tower (All Times)","rewards":["24020 gil","Mega Phoenix","4 Stars"],"region":"Duscae"},{"name":"Devils Cry Curses","level":"72","location":"Cauthess Rest Area (Hunter Rank 9)","enemy":["Molokujata"],"habitat":"The Mencemoor (All Times)","rewards":["35940 gil","Black Choker","5 Stars"],"region":"Duscae"},{"name":"Secure the Mountain Pass","level":"12","location":"Lestallum- Surgate's Beanmine","enemy":["Saberclaw x9"],"habitat":"Pallereth Pass (All Times)","rewards":["2270 gil","Hi-Elixir","2 Stars"],"region":"Cleigne"},{"name":"Cool Callatein Mist","level":"22","location":"Lestallum- Surgate's Beanmine","enemy":["Ice Bomb x5"],"habitat":"Callatein's Plunge (Night)","rewards":["3380 gil","Hi-Elixir","2 Stars"],"region":"Cleigne"},{"name":"To Sting in Anger","level":"22","location":"Lestallum- Surgate's Beanmine","enemy":["Brutal Bee x3","Killer Bee x5"],"habitat":"Coernix Bypass (All Times)","rewards":["3390 gil","Green Choker","2 Stars"],"region":"Cleigne"},{"name":"Help Needed in EXINERIS","level":"24","location":"Lestallum- Surgate's Beanmine (Chapter 8)","enemy":["Garchimacera x8"],"habitat":"EXINERIS Power Plant (Night - Ch 8)","rewards":["3540 gil","Megalixir","2 Stars"],"region":"Cleigne"},{"name":"To Catch a Frog","level":"27","location":"Lestallum- Surgate's Beanmine (Hunter Rank 3)","enemy":["Hekantontoad x2"],"habitat":"Pallareth Pass (Day - Raining)","rewards":["4070 gil","Megalixir","2 Stars"],"region":"Cleigne"},{"name":"Long Necks on the Plains","level":"28","location":"Lestallum- Surgate's Beanmine(Hunter Rank 3)","enemy":["Arba x5"],"habitat":"Kelbass Grasslands (Day)","rewards":["4480 gil","Megalixir","2 Stars"],"region":"Cleigne"},{"name":"They Came Back from the Mountain","level":"30","location":"Lestallum- Surgate's Beanmine (Hunter Rank 4)","enemy":["Megaloclaw x5"],"habitat":"Coernix Bypass (All Times)","rewards":["4890 gil","Mega Phoenix","3 Stars"],"region":"Cleigne"},{"name":"Rainstorm Duel! Poison Frog of Wennath","level":"32","location":"Lestallum- Surgate's Beanmine (Hunter Rank 4)","enemy":["Gaiatoad x1"],"habitat":"Upper Wennath (Day - Rainy)","rewards":["5350 gil","Mega Phoenix","3 Stars"],"region":"Cleigne"},{"name":"Aquit Not Evil","level":"38","location":"Lestallum- Surgate's Beanmine (Hunter Rank 4)","enemy":["Alphagin x3","Sahagin x2"],"habitat":"Upper Wennath (All Times)","rewards":["6650 gil","Knight's Anklet","3 Stars"],"region":"Cleigne"},{"name":"No Stopping the Great Stink","level":"38","location":"Lestallum- Surgate's Beanmine (Complete Chapter 15)","enemy":["Malboro"],"habitat":"Kelbass Grasslands (All Times)","rewards":["6780 gil","Golden Hourglass","3 Stars"],"region":"Cleigne"},{"name":"Trembling Killers","level":"57","location":"Lestallum- Surgate's Beanmine (Complete Chapter 15)","enemy":["Ziggurat"],"habitat":"Kelbass Grasslands (Night)","rewards":["16480 gil","Safety Bit","4 Stars"],"region":"Cleigne"},{"name":"An Omen Crawls Upon the Ground","level":"68","location":"Lestallum- Surgate's Beanmine (Complete Chapter 15)","enemy":["Grootslang"],"habitat":"Kelbass Grasslands (All Times)","rewards":["26840 gil","Red Choker","4 Stars"],"region":"Cleigne"},{"name":"Bones Seek an Offering","level":"72","location":"Lestallum- Surgate's Beanmine (Complete Chapter 15)","enemy":["Iseultalon"],"habitat":"Kelbass Grasslands (Night)","rewards":["33790 gil","Dark Crest","5 Stars"],"region":"Cleigne"},{"name":"Dead General Strikes Down the King","level":"99","location":"Lestallum- Surgate's Beanmine (Complete Chapter 15)","enemy":["Ayakashi"],"habitat":"Kelbass Grasslands (Night)","rewards":["42000 gil","Ribbon","5 Stars"],"region":"Cleigne"},{"name":"Avenge the Anglers","level":"24","location":"Lestallum- Tostwell Grill","enemy":["Albinogin x3"],"habitat":"Callatein's Plunge (All Times)","rewards":["3660 gil","Megalixir","2 Stars"],"region":"Cleigne"},{"name":"Ruler of the Brave Skies","level":"30","location":"Lestallum- Tostwell Grill","enemy":["Griffon x1"],"habitat":"Kelbass Grasslands (All Times)","rewards":["4935 gil","Mega Phoenix","3 Stars"],"region":"Cleigne"},{"name":"Off with Their Heads!","level":"31","location":"Lestallum- Tostwell Grill","enemy":["Arbagadol x2","Arba x3"],"habitat":"Kelbass Grasslands (Day)","rewards":["5070 gil","Lightning Crest","3 Stars"],"region":"Cleigne"},{"name":"Disquieted Queens","level":"38","location":"Lestallum- Tostwell Grill(Hunter Rank 4)","enemy":["Killer Queen x3"],"habitat":"Coernix Bypass (All Times)","rewards":["6850 gil","Mega Phoenix","3 Stars"],"region":"Cleigne"},{"name":"The Web-Weaving Princesses","level":"41","location":"Lestallum- Tostwell Grill(Complete Burden of Expectation)","enemy":["Ariadne x3","Kokyangwuti x3"],"habitat":"Greyshire Glacial Grotto (All Times)","rewards":["7950 gil","Mega Phoenix","3 Stars"],"region":"Cleigne"},{"name":"In a Heat Haze of Glory","level":"52","location":"Lestallum- Tostwell Grill (Chapter 8)","enemy":["Aramusha"],"habitat":"EXINERIS Power Plant (Night)","rewards":["14490 gil","Silver Bangle","4 Stars"],"region":"Cleigne"},{"name":"Voltage Fluctuation","level":"29","location":"Meldacio Hunter HQ","enemy":["Thunderoc x9"],"habitat":"Pallareth Pass (Day)","rewards":["4650 gil","1 Megalixir","2 Stars"],"region":"Cleigne"},{"name":"Threat from the Thicket","level":"33","location":"Meldacio Hunter HQ (Chapter 8)","enemy":["Killer Wasp"],"habitat":"The Vesperpool (Day)","rewards":["5550 gil","Mega Phoenix","3 Stars"],"region":"Cleigne"},{"name":"Softly Now, Mighty Foes","level":"35","location":"Meldacio Hunter HQ (Chapter 8)","enemy":["Lich"],"habitat":"Steyliff Grove (All Times)","rewards":["6060 gil","Mega Phoenix","3 Stars"],"region":"Cleigne"},{"name":"Mission: Invincible","level":"38","location":"Meldacio Hunter HQ (Chapter 8)","enemy":["Black Flan"],"habitat":"The Vesperpool (Night)","rewards":["7020 gil","Mega Phoenix","3 Stars"],"region":"Cleigne"},{"name":"Divine Beast of the Underworld","level":"38","location":"Meldacio Hunter HQ (Chapter 8)","enemy":["Quetzalcoatl"],"habitat":"Steyliff Grove (All Times)","rewards":["7110 gil","Mega Phoenix","3 Stars"],"region":"Cleigne"},{"name":"Hunter HQ Line of Defense","level":"42","location":"Meldacio Hunter HQ (Chapter 8)","enemy":["Mushmahhu Mushussu"],"habitat":"Risorath Basin (All Times)","rewards":["8660 gil","Ice Crest","3 Stars"],"region":"Cleigne"},{"name":"Lovable Little Gluttons","level":"44","location":"Meldacio Hunter HQ (Hunter Rank 5)","enemy":["Regaltrice"],"habitat":"The Vesperpool (Night)","rewards":["8980 gil","Mega Phoenix","3 Stars"],"region":"Cleigne"},{"name":"Felling the Mad, Old Trees","level":"46","location":"Meldacio Hunter HQ (Complete The Mrylwood)","enemy":["Treant"],"habitat":"The Vesperpool (Night)","rewards":["9900 gil","Mega Phoenix","3 Stars"],"region":"Cleigne"},{"name":"Serpent of Risorath Basin","level":"54","location":"Meldacio Hunter HQ (Hunter Rank 7)","enemy":["Midgardsormr"],"habitat":"The Vesperpool (All Times)","rewards":["15690 gil","Mega Phoenix","4 Stars"],"region":"Cleigne"},{"name":"Breeding Season: Hen Extermination","level":"62","location":"Meldacio Hunter HQ (Hunter Rank 8)","enemy":["Royalisk"],"habitat":"The Vesperpool (Day)","rewards":["21120 gil","Mega Phoenix","4 Stars"],"region":"Cleigne"},{"name":"Breeding Season: Rooster Extermination","level":"70","location":"Meldacio Hunter HQ (Hunter Rank 9)","enemy":["Kingatrice Basilisk"],"habitat":"The Vesperpool (Day)","rewards":["30320 gil","Mega Phoenix","5 Stars"],"region":"Cleigne"},{"name":"People-Eating Snake Has Got to Go","level":"78","location":"Meldacio Hunter HQ (Hunter Rank 9)","enemy":["Hvitrormr"],"habitat":"The Vesperpool (All Times)","rewards":["36070 gil","Mega Phoenix","5 Stars"],"region":"Cleigne"},{"name":"A Wall in Our Way","level":"83","location":"Meldacio Hunter HQ (Hunter Rank 9)","enemy":["Daemonwall"],"habitat":"Steyliff Grove (All TImes","rewards":["38000 gil","Emerald Bracelet","5 Stars"],"region":"Cleigne"},{"name":"The Last Spiracorns","level":"29","location":"Old Lestallum","enemy":["Duplicorn x2","Spiracorn x3"],"habitat":"Lower Wennath (Day)","rewards":["4610 gil","Megalixir","2 Stars"],"region":"Cleigne"},{"name":"Shear Force","level":"34","location":"Old Lestallum","enemy":["Mightyshears x3"],"habitat":"Lower Wennath (All Times)","rewards":["5730 gil","Mega Phoenix","3 Stars"],"region":"Cleigne"},{"name":"Blobs Ashore","level":"35","location":"Old Lestallum","enemy":["Gelatin x3"],"habitat":"Malmalam Thicket (Night)","rewards":["5920 gil","Titanium Bangle","3 Stars"],"region":"Cleigne"},{"name":"Herald from the Depths","level":"40","location":"Old Lestallum (Hunter Rank 5)","enemy":["Karlabos x1"],"habitat":"Leirity Seaside (All Times)","rewards":["7730 gil","Mega Phoenix","3 Stars"],"region":"Cleigne"},{"name":"Starving Beast Seeks Food","level":"47","location":"Old Lestallum (Hunter Rank 6)","enemy":["Aspidochelon"],"habitat":"Lower Wennath (All Times)","rewards":["11790 gil","Mega Phoenix","3 Stars"],"region":"Cleigne"},{"name":"Malamalam Mirage","level":"51","location":"Old Lestallum (Complete Malamalam Thicket)","enemy":["Bandersnatch"],"habitat":"Malamalam Thicket (All Times)","rewards":["13500 gil","Mega Phoenix","4 Stars"],"region":"Cleigne"},{"name":"Scrap It Now!","level":"61","location":"Old Lestallum (Hunter Rank 7)","enemy":["Leukorn"],"habitat":"Coernix Bypass (Day)","rewards":["18330 gil","Mega Phoenix","4 Stars"],"region":"Cleigne"},{"name":"Rules of the Banks","level":"62","location":"Old Lestallum (Hunter Rank 8)","enemy":["Coraldevil Seadevil"],"habitat":"The Maidenwater (All Times)","rewards":["20550 gil","Towel","4 Stars"],"region":"Cleigne"},{"name":"Deadly Extermination","level":"37","location":"Verinas Mart - Ravatogh","enemy":["Soldier Warp x3","Killer Wasp x3"],"habitat":"Ravatoghan Trail (All Times)","rewards":["6440 gil","Mega Phoenix","3 Stars"],"region":"Cleigne"},{"name":"Verinas Mart Under Threat","level":"38","location":"Verinas Mart - Ravatogh","enemy":["Wyvern x7"],"habitat":"Ravatoghan Trail (All Times)","rewards":["7290 gil","Sapphire Bracelet","3 Stars"],"region":"Cleigne"},{"name":"Red Lightning of Ravatogh","level":"44","location":"Verinas Mart - Ravatogh (Hunter Rank 5)","enemy":["Copperoc x3","Thunderoc x3"],"habitat":"Ravatoghan Trail (Day)","rewards":["9140 gil","Mega Phoenix","3 Stars"],"region":"Cleigne"},{"name":"Pointiest Pins in the Volcano","level":"47","location":"Verinas Mart - Ravatogh (Hunter Rank 6)","enemy":["Reaperking"],"habitat":"Ravatoghan Trail (All Times)","rewards":["12090 gil","Mega Phoenix","3 Stars"],"region":"Cleigne"},{"name":"Feathered Giant of the Firesmoke","level":"67","location":"Verinas Mart - Ravatogh (Complete A Perfect Cup)","enemy":["Zu"],"habitat":"Rock of Ravatogh (All Times)","rewards":["25300 gil","Champion's Anklet","4 Stars"],"region":"Cleigne"},{"name":"Bewitched Blade Stains the Waters","level":17,"location":"Altissia","enemy":"Ronin","rewards":["3130 gil","Megalixir","2 Stars"],"region":"Altissia"},{"name":"A Nightmare Upon the Water","level":20,"location":"Altissia","enemy":"Hecteyes","rewards":["3280 gil","Megalixir","2 Stars"],"region":"Altissia"},{"name":"Ill Weeds Grow at Night","level":22,"location":"Altissia","enemy":"Alv","rewards":["3450 gil","Megalixir","2 Stars"],"region":"Altissia"},{"name":"Back Alley Spook","level":26,"location":"Altissia","enemy":"Mindflayer","rewards":["3990 gil","Heliodor Bracelet","2 Stars"],"region":"Altissia"},{"name":"The Case of the Disappearing Hunters","level":29,"location":"Altissia (Complete previous 4 hunts)","enemy":"Tonberry","rewards":["4740 gil","Red Choker","2 Stars"],"region":"Altissia"},{"name":"Will o' the Wisps out on the Town","level":31,"location":"Altissia (Complete previous hunt)","enemy":"Grenade","rewards":["5120 gil","Black Choker","3 Stars"],"region":"Altissia"},{"name":"A Lost Painting","level":32,"location":"Altissia (Start The Cursed Canvas)","enemy":"Chadarnook","rewards":["5480 gil","Handkerchief","3 Stars"],"region":"Altissia"},{"name":"Tourists Fade into the Night","level":35,"location":"Altissia (Complete Disappearing Hunters Bounty)","enemy":"Salpinx","rewards":["6140 gil","Adamantite Bangle","3 Stars"],"region":"Altissia"},{"name":"The Tragic Facts","level":41,"location":"Altissia (Complete Disappearing Hunters Bounty)","enemy":"Master Tonberry","rewards":["8360 gil","Amethyst Bracelet","3 Stars"],"region":"Altissia"},{"name":"King of the Great Escape","level":50,"location":"Altissia (Complete Disappearing Hunters Bounty)","enemy":"Bavarois","rewards":["13190 gil","Diamond Bracelet","4 Stars"],"region":"Altissia"}]